[
 {
   "Title": "昇暘車業股份有限公司",
   "Tel": "05-2318129",
   "Address": "嘉義市西區博愛路2段131之1號1樓",
   "Brand": "三陽",
   "Lat": 23.4816136,
   "Lon": 120.4397273
 },
 {
   "Title": "宏嘉機車行",
   "Tel": "05-2284523",
   "Address": "嘉義市東區興業東路229號",
   "Brand": "光陽",
   "Lat": 23.4694336,
   "Lon": 120.4540444
 },
 {
   "Title": "嘉進車業股份有限公司",
   "Tel": "05-2361750",
   "Address": "嘉義市西區金山路215號",
   "Brand": "光陽",
   "Lat": 23.4758656,
   "Lon": 120.4230624
 },
 {
   "Title": "嘉雲南機車商行",
   "Tel": "05-2289988",
   "Address": "嘉義市東區民族路408號",
   "Brand": "山葉",
   "Lat": 23.4761251,
   "Lon": 120.4511219
 },
 {
   "Title": "富達輪業有限公司",
   "Tel": "05-2230368",
   "Address": "嘉義市西區中山路400號",
   "Brand": "山葉",
   "Lat": 23.4795559,
   "Lon": 120.4455085
 },
 {
   "Title": "振南機車行",
   "Tel": "05-2230448",
   "Address": "嘉義市東區宣信街173號一樓",
   "Brand": "山葉",
   "Lat": 23.46684,
   "Lon": 120.4620628
 },
 {
   "Title": "慶明機車行",
   "Tel": "05-2223624",
   "Address": "嘉義市西區民族路574號",
   "Brand": "光陽",
   "Lat": 23.4757629,
   "Lon": 120.4471033
 },
 {
   "Title": "滿金機車行",
   "Tel": "05-2350282",
   "Address": "嘉義市西區民生南路570號",
   "Brand": "三陽",
   "Lat": 23.4583748,
   "Lon": 120.443334
 },
 {
   "Title": "南興車業行",
   "Tel": "05-2287406",
   "Address": "嘉義市東區南興路182號",
   "Brand": "三陽",
   "Lat": 23.4665783,
   "Lon": 120.4575413
 },
 {
   "Title": "勝快機車有限公司",
   "Tel": "05-2242125",
   "Address": "嘉義市東區吳鳳北路257號",
   "Brand": "台鈴",
   "Lat": 23.4804894,
   "Lon": 120.4530495
 },
 {
   "Title": "信芳車業有限公司",
   "Tel": "05-2275128",
   "Address": "嘉義市東區忠孝路131號",
   "Brand": "光陽",
   "Lat": 23.4803881,
   "Lon": 120.4542556
 },
 {
   "Title": "峰基車業有限公司",
   "Tel": "05-2771932",
   "Address": "嘉義市東區忠孝路284-7號",
   "Brand": "山葉",
   "Lat": 23.4857751,
   "Lon": 120.4538094
 },
 {
   "Title": "正田機車行",
   "Tel": "05-2752875",
   "Address": "嘉義市東區台林街90號",
   "Brand": "光陽",
   "Lat": 23.4949835,
   "Lon": 120.4545786
 },
 {
   "Title": "德盛機車行",
   "Tel": "05-2851482",
   "Address": "嘉義市民生南路878號",
   "Brand": "三陽",
   "Lat": 23.4541801,
   "Lon": 120.4395458
 },
 {
   "Title": "上大機車行",
   "Tel": "05-2787418",
   "Address": "嘉義市民權路157之1號1樓",
   "Brand": "摩特動力",
   "Lat": 23.4836828,
   "Lon": 120.4603318
 },
 {
   "Title": "凱輪車業行",
   "Tel": "05-2340902",
   "Address": "嘉義市自由路299號",
   "Brand": "台鈴",
   "Lat": 23.4913527,
   "Lon": 120.4325216
 },
 {
   "Title": "富安機車行",
   "Tel": "05-2223086",
   "Address": "嘉義市吳鳳北路234號",
   "Brand": "山葉",
   "Lat": 23.4798828,
   "Lon": 120.4531775
 },
 {
   "Title": "志誠機車行",
   "Tel": "05-2391987",
   "Address": "嘉義市吳鳳南路621巷9號",
   "Brand": "光陽",
   "Lat": 23.4558875,
   "Lon": 120.4596909
 },
 {
   "Title": "銘鍚車業有限公司",
   "Tel": "05-2782381",
   "Address": "嘉義市東區民權路171號",
   "Brand": "光陽",
   "Lat": 23.4836982,
   "Lon": 120.4596099
 },
 {
   "Title": "百合機車行",
   "Tel": "05-2770352",
   "Address": "嘉義市林森東路273號",
   "Brand": "三陽",
   "Lat": 23.4900328,
   "Lon": 120.4661619
 },
 {
   "Title": "大象機車行",
   "Tel": "05-2225516",
   "Address": "嘉義市芳安路29號",
   "Brand": "山葉",
   "Lat": 23.4687283,
   "Lon": 120.464715
 },
 {
   "Title": "建達機車行",
   "Tel": "05-2850839",
   "Address": "嘉義市建成街96號",
   "Brand": "光陽",
   "Lat": 23.4706873,
   "Lon": 120.4394083
 },
 {
   "Title": "巨豐車業有限公司",
   "Tel": "05-2327650",
   "Address": "嘉義市博愛路一段438號",
   "Brand": "山葉",
   "Lat": 23.4861925,
   "Lon": 120.4433274
 },
 {
   "Title": "文發車業行",
   "Tel": "05-2359126",
   "Address": "嘉義市博愛路二段399號",
   "Brand": "光陽",
   "Lat": 23.4745778,
   "Lon": 120.4338039
 },
 {
   "Title": "東亞機車行",
   "Tel": "05-2281037",
   "Address": "嘉義市東區初陽里延平街162號",
   "Brand": "光陽",
   "Lat": 23.4853348,
   "Lon": 120.4760853
 },
 {
   "Title": "慶和機車行",
   "Tel": "05-2226567",
   "Address": "嘉義市鎮南里忠孝路552-6號",
   "Brand": "三陽",
   "Lat": 23.494568,
   "Lon": 120.452786
 },
 {
   "Title": "名牌機車行",
   "Tel": "05-2761665",
   "Address": "嘉義市大雅路二段569號1樓",
   "Brand": "光陽",
   "Lat": 23.4773398,
   "Lon": 120.4678344
 },
 {
   "Title": "昇達機車商行",
   "Tel": "05-2279820",
   "Address": "嘉義市東區公明路304號",
   "Brand": "比雅久",
   "Lat": 23.4799429,
   "Lon": 120.453571
 },
 {
   "Title": "男華機車行",
   "Tel": "05-2830829",
   "Address": "嘉義市西區劉厝里自強街111號",
   "Brand": "光陽",
   "Lat": 23.4648619,
   "Lon": 120.4225273
 },
 {
   "Title": "正新機車行",
   "Tel": "05-2322932",
   "Address": "嘉義市西區博愛路一段369號1樓",
   "Brand": "光陽",
   "Lat": 23.4875062,
   "Lon": 120.4444594
 },
 {
   "Title": "南榮機車行",
   "Tel": "05-2359175",
   "Address": "嘉義市西區劉厝里自強街84巷2號1樓",
   "Brand": "三陽",
   "Lat": 23.4649941,
   "Lon": 120.4217174
 },
 {
   "Title": "大發機車行",
   "Tel": "05-2331251",
   "Address": "嘉義市中興路487號",
   "Brand": "山葉",
   "Lat": 23.4789363,
   "Lon": 120.4290782
 },
 {
   "Title": "嘉榮機車行",
   "Tel": "05-2340679",
   "Address": "600嘉義市西區保安一路136號",
   "Brand": "光陽",
   "Lat": 23.4934537,
   "Lon": 120.4385867
 },
 {
   "Title": "建福車業行",
   "Tel": "05-2225148",
   "Address": "嘉義市西區民生北路231號",
   "Brand": "光陽",
   "Lat": 23.4805638,
   "Lon": 120.4460858
 },
 {
   "Title": "吉富機車行",
   "Tel": "(05)2856177",
   "Address": "嘉義市西區光路里8鄰新民路448號1樓",
   "Brand": "山葉",
   "Lat": 23.4607462,
   "Lon": 120.4409202
 },
 {
   "Title": "安生機車行",
   "Tel": "05-2292048",
   "Address": "嘉義市東區豐年里吳鳳南路30號一樓",
   "Brand": "山葉",
   "Lat": 23.4712856,
   "Lon": 120.4539919
 },
 {
   "Title": "協輪機車行",
   "Tel": "05-2323871",
   "Address": "嘉義市西區北興街442-2號1-2樓",
   "Brand": "光陽",
   "Lat": 23.4874014,
   "Lon": 120.435093
 },
 {
   "Title": "紘昌行",
   "Tel": "05-2850769",
   "Address": "嘉義市西區福民里重慶路28號1樓",
   "Brand": "山葉",
   "Lat": 23.4657748,
   "Lon": 120.4399094
 },
 {
   "Title": "縉欑機車行",
   "Tel": "05-2853575",
   "Address": "嘉義市西區西平里20鄰玉山路259號",
   "Brand": "光陽",
   "Lat": 23.471703,
   "Lon": 120.4245056
 },
 {
   "Title": "開元機車行",
   "Tel": "05-2782710",
   "Address": "嘉義市東區保建街30之9號1樓",
   "Brand": "山葉",
   "Lat": 23.5009756,
   "Lon": 120.4552636
 }
]