[
 {
   "Title": "榮全機車行",
   "Tel": "03-5352958",
   "Address": "新竹市光華二街41號1樓",
   "Brand": "光陽",
   "Lat": 24.8182673,
   "Lon": 120.9748421
 },
 {
   "Title": "福明車行",
   "Tel": "03-5203330",
   "Address": "新竹市東區明湖路469號",
   "Brand": "光陽",
   "Lat": 24.7824701,
   "Lon": 120.9670759
 },
 {
   "Title": "舜晟機車行",
   "Tel": "03-5283901",
   "Address": "新竹市北區西大路514號",
   "Brand": "三陽",
   "Lat": 24.8053432,
   "Lon": 120.9632317
 },
 {
   "Title": "鑫豐車業有限公司",
   "Tel": "03-5773475",
   "Address": "新竹市東區光復路一段679號",
   "Brand": "山葉",
   "Lat": 24.7874976,
   "Lon": 121.0094571
 },
 {
   "Title": "銘祥機車行",
   "Tel": "03-5321648",
   "Address": "新竹市東區中華路一段232號",
   "Brand": "台鈴",
   "Lat": 24.8134927,
   "Lon": 120.9903225
 },
 {
   "Title": "進財輪業有限公司",
   "Tel": "03-5213550",
   "Address": "新竹市東區中華路二段593號",
   "Brand": "山葉",
   "Lat": 24.7993039,
   "Lon": 120.9674914
 },
 {
   "Title": "雙宏機車行",
   "Tel": "03-5252791",
   "Address": "新竹市東區建華里寶山路5號",
   "Brand": "三陽",
   "Lat": 24.7942837,
   "Lon": 120.9732741
 },
 {
   "Title": "欣益車業有限公司",
   "Tel": "03-5254624",
   "Address": "新竹市中華路三段3號一樓",
   "Brand": "比雅久",
   "Lat": 24.7960115,
   "Lon": 120.958399
 },
 {
   "Title": "協榮機車行",
   "Tel": "03-5712045",
   "Address": "新竹市東區光復路二段217號",
   "Brand": "台鈴",
   "Lat": 24.7994563,
   "Lon": 120.9913154
 },
 {
   "Title": "三朧機車有限公司",
   "Tel": "03-5711070",
   "Address": "新竹市東區光復路二段339號",
   "Brand": "三陽",
   "Lat": 24.8009473,
   "Lon": 120.9868579
 },
 {
   "Title": "椿騏輪業股份有限公司",
   "Tel": "03-5627286",
   "Address": "新竹市東南街116號",
   "Brand": "山葉",
   "Lat": 24.7976848,
   "Lon": 120.9737287
 },
 {
   "Title": "金祥車業有限公司",
   "Tel": "03-5240622",
   "Address": "新竹市東區西大路526號",
   "Brand": "光陽",
   "Lat": 24.8055186,
   "Lon": 120.9630774
 },
 {
   "Title": "振益車行",
   "Tel": "03-5266555",
   "Address": "新竹市北區經國路二段626號",
   "Brand": "光陽",
   "Lat": 24.801484,
   "Lon": 120.954033
 },
 {
   "Title": "石井機車精品店",
   "Tel": "03-5786008",
   "Address": "新竹市光復路一段1號",
   "Brand": "山葉",
   "Lat": 24.7808773,
   "Lon": 121.0263253
 },
 {
   "Title": "凱竣車業有限公司",
   "Tel": "03-5346566",
   "Address": "新竹市中正路241號1樓",
   "Brand": "台鈴",
   "Lat": 24.8120927,
   "Lon": 120.9642723
 },
 {
   "Title": "全德機車行",
   "Tel": "03-5224506",
   "Address": "新竹市中華路2段550、552號",
   "Brand": "光陽",
   "Lat": 24.8001243,
   "Lon": 120.9685253
 },
 {
   "Title": "永達機車行",
   "Tel": "03-5387520",
   "Address": "新竹市中華路4段719號1樓",
   "Brand": "光陽",
   "Lat": 24.7887162,
   "Lon": 120.9299951
 },
 {
   "Title": "興源機車行",
   "Tel": "03-5374755",
   "Address": "新竹市中華路5段864號",
   "Brand": "三陽",
   "Lat": 24.7617423,
   "Lon": 120.9124465
 },
 {
   "Title": "元久達車業商號",
   "Tel": "03-5388229",
   "Address": "新竹市牛埔路170巷4號1F",
   "Brand": "三陽",
   "Lat": 24.7998693,
   "Lon": 120.9515504
 },
 {
   "Title": "松泰車業有限公司",
   "Tel": "03-5252298",
   "Address": "新竹市北大路451號",
   "Brand": "山葉",
   "Lat": 24.802223,
   "Lon": 120.960273
 },
 {
   "Title": "三福機車行",
   "Tel": "03-5323311",
   "Address": "新竹市民族路212號",
   "Brand": "台鈴",
   "Lat": 24.8096573,
   "Lon": 120.9802224
 },
 {
   "Title": "遠倫車業有限公司",
   "Tel": "03-5788465",
   "Address": "新竹市光復路一段396號1樓",
   "Brand": "光陽",
   "Lat": 24.7845256,
   "Lon": 121.0149307
 },
 {
   "Title": "駿業車業",
   "Tel": "03-5727049",
   "Address": "新竹市學府路357號1樓",
   "Brand": "三陽",
   "Lat": 24.797278,
   "Lon": 120.9853216
 },
 {
   "Title": "亞特機車行",
   "Tel": "03-5351355",
   "Address": "新竹市光華二街66-1號1F",
   "Brand": "三陽",
   "Lat": 24.8191382,
   "Lon": 120.9757115
 },
 {
   "Title": "德興振機車行",
   "Tel": "03-5422063",
   "Address": "新竹市國華街33號1樓",
   "Brand": "光陽",
   "Lat": 24.815178,
   "Lon": 120.970621
 },
 {
   "Title": "榮新車行",
   "Tel": "03-5221642",
   "Address": "新竹市延平路1段495號",
   "Brand": "光陽",
   "Lat": 24.8050094,
   "Lon": 120.9453251
 },
 {
   "Title": "盛嘉車業有限公司",
   "Tel": "03-5260706",
   "Address": "新竹市東大路1段6號",
   "Brand": "三陽",
   "Lat": 24.8016243,
   "Lon": 120.9770594
 },
 {
   "Title": "進福車行",
   "Tel": "03-5363273",
   "Address": "新竹市天府路二段33號1樓",
   "Brand": "三陽",
   "Lat": 24.8396254,
   "Lon": 120.9302172
 },
 {
   "Title": "欣輪機車行",
   "Tel": "03-5237916",
   "Address": "新竹市食品路199號1樓",
   "Brand": "光陽",
   "Lat": 24.7964451,
   "Lon": 120.9751893
 },
 {
   "Title": "佳宏機車行",
   "Tel": "03-5267741",
   "Address": "新竹市高峰路3號1F",
   "Brand": "光陽",
   "Lat": 24.7941207,
   "Lon": 120.9728353
 },
 {
   "Title": "偉倫商行",
   "Tel": "03-5259377",
   "Address": "新竹市中華路二段290號",
   "Brand": "光陽",
   "Lat": 24.8045343,
   "Lon": 120.9756843
 },
 {
   "Title": "全富車行",
   "Tel": "03-5772285",
   "Address": "新竹市光復路一段142號",
   "Brand": "光陽",
   "Lat": 24.78172,
   "Lon": 121.023176
 },
 {
   "Title": "文榮車行",
   "Tel": "03-5351041",
   "Address": "新竹市武陵路39號",
   "Brand": "光陽",
   "Lat": 24.8176991,
   "Lon": 120.9645179
 },
 {
   "Title": "有順機車行",
   "Tel": "03-5381350",
   "Address": "新竹市大庄路67號",
   "Brand": "山葉",
   "Lat": 24.7898127,
   "Lon": 120.9278332
 },
 {
   "Title": "榮志機車行",
   "Tel": "03-5206721",
   "Address": "新竹市明湖路426號",
   "Brand": "光陽",
   "Lat": 24.7847233,
   "Lon": 120.967533
 },
 {
   "Title": "陞鴻機車行",
   "Tel": "03-5250185",
   "Address": "新竹市光復路二段908號",
   "Brand": "光陽",
   "Lat": 24.803014,
   "Lon": 120.9816189
 },
 {
   "Title": "立業機車行",
   "Tel": "03-5614803",
   "Address": "新竹市南大路564號1樓",
   "Brand": "山葉",
   "Lat": 24.7945441,
   "Lon": 120.964208
 },
 {
   "Title": "大慶機車行",
   "Tel": "03-5242359",
   "Address": "新竹市光復路二段982號",
   "Brand": "山葉",
   "Lat": 24.8036341,
   "Lon": 120.9794127
 },
 {
   "Title": "康樂車行",
   "Tel": "03-5369396",
   "Address": "新竹市東大路三段369號",
   "Brand": "山葉",
   "Lat": 24.836395,
   "Lon": 120.943328
 },
 {
   "Title": "順益車行",
   "Tel": "03-5259555",
   "Address": "新竹市東門街21號",
   "Brand": "光陽",
   "Lat": 24.8041237,
   "Lon": 120.9737022
 },
 {
   "Title": "久益機車行",
   "Tel": "03-5238023",
   "Address": "新竹市中山路383號",
   "Brand": "光陽",
   "Lat": 24.8003113,
   "Lon": 120.9583678
 },
 {
   "Title": "金展機車行",
   "Tel": "03-6686009",
   "Address": "新竹市光復路一段274號",
   "Brand": "山葉",
   "Lat": 24.7822741,
   "Lon": 121.020245
 },
 {
   "Title": "增鴻機車行",
   "Tel": "03-6686211",
   "Address": "新竹市金山十街10號",
   "Brand": "光陽",
   "Lat": 24.778158,
   "Lon": 121.021416
 },
 {
   "Title": "詠順車料行",
   "Tel": "03-5328137",
   "Address": "新竹市東區民族路124之1號",
   "Brand": "光陽",
   "Lat": 24.8079594,
   "Lon": 120.9774647
 },
 {
   "Title": "盛興機車行",
   "Tel": "03-5618612",
   "Address": "新竹市東區食品路376號",
   "Brand": "光陽",
   "Lat": 24.7939397,
   "Lon": 120.9691703
 },
 {
   "Title": "萬人機車行",
   "Tel": "03-5331815",
   "Address": "新竹市西大路876號",
   "Brand": "光陽",
   "Lat": 24.8118666,
   "Lon": 120.9557427
 },
 {
   "Title": "銘興機車行",
   "Tel": "03-5750825",
   "Address": "新竹市光復路二段72號",
   "Brand": "三陽",
   "Lat": 24.7921181,
   "Lon": 121.0032355
 },
 {
   "Title": "川岩工坊",
   "Tel": "03-5337117",
   "Address": "新竹市民主路14號",
   "Brand": "山葉",
   "Lat": 24.8089041,
   "Lon": 120.981419
 },
 {
   "Title": "福興機車行",
   "Tel": "03-5370399",
   "Address": "新竹市中華路五段684之2號",
   "Brand": "光陽",
   "Lat": 24.766664,
   "Lon": 120.914935
 },
 {
   "Title": "龍海車業行",
   "Tel": "03-5369877",
   "Address": "新竹市延平路三段390號1F",
   "Brand": "光陽",
   "Lat": 24.8367855,
   "Lon": 120.9314213
 },
 {
   "Title": "群民機車行",
   "Tel": "03-5315129",
   "Address": "新竹市光華一街15號",
   "Brand": "三陽",
   "Lat": 24.8158394,
   "Lon": 120.9735848
 },
 {
   "Title": "尚好機車行",
   "Tel": "03-5152456",
   "Address": "新竹市民生路285號",
   "Brand": "山葉",
   "Lat": 24.8132405,
   "Lon": 120.974485
 },
 {
   "Title": "程宏車業行",
   "Tel": "03-5320933",
   "Address": "新竹市自由路86號",
   "Brand": "三陽",
   "Lat": 24.813959,
   "Lon": 120.9803576
 },
 {
   "Title": "昱宏機車行",
   "Tel": "03-5770392",
   "Address": "新竹市金山十一街68號",
   "Brand": "山葉",
   "Lat": 24.7772384,
   "Lon": 121.0217259
 }
]